order,name,label,tags,parent,codesystem,code,ontologyTermURI,definition,city,country,latitude,longitude,organisationType,image,image_filename,hasSchema,schemaName
,Medical University Innsbruck,,,,ROR,03pt86f80,https://ror.org/03pt86f80,,Innsbruck,Austria,47.26266,11.39454,,,,,
,EB-Haus,EB House Austria,,,ROR,059q6am89,https://ror.org/059q6am89,,Salzburg,Austria,47.807328,13.030384,,,,,
,University Hospital Ghent,Ghent University Hospital,,,ROR,00xmkp704,https://ror.org/00xmkp704,,Ghent,Belgium,51.025171,3.725213,,,,,
,University Hospital Leuven,Universitair Ziekenhuis Leuven,,,ROR,0424bsv16,https://ror.org/0424bsv16,,Leuven,Belgium,50.87959,4.70093,,,,,
,Hôpital Universitaire de Bruxelles(HUDERF-Erasme),Erasmus Hospital,,,ROR,05j1gs298,https://ror.org/05j1gs298,,Brussels,Belgium,50.813611,4.266111,,,,,
,University Hospital Královské Vinohrady,,,,ROR,04sg4ka71,https://ror.org/04sg4ka71,,Prague,Czechia,5008804.0,1442076.0,,,,,
,Hospital Na Bulovce,Fakultní nemocnice Bulovka,,,ROR,009e9xr64,https://ror.org/009e9xr64,,Prague,Czechia,50.116207,14.464003,,,,,
,Saint Anna University Hospital in Brno,St. Anne´s University Hospital,,,ROR,049bjee35,https://ror.org/049bjee35,,Brno,Czechia,49.19215,16.599042,,,,,
,University Hospital Brno,,,,ROR,00qq1fp34,https://ror.org/00qq1fp34,,Brno,Czechia,49.174602,16.573914,,,,,
,Zealand University Hospital,,,,ROR,00363z010,https://ror.org/00363z010,,Roskilde,Denmark,55.64152,12.08035,,,,,
,Odense University Hospital,,,,ROR,00ey0ed83,https://ror.org/00ey0ed83,,Odense,Denmark,55.38545,10.369656,,,,,
,Helsinki University Hospital (HUS),,,,ROR,02e8hzf44,https://ror.org/02e8hzf44,,Helsinki,Finland,60.188611,24.905278,,,,,
,"Assistance Publique-Hôpitaux de Paris, Hôpital Henri-Mondor",Hôpital Necker-Enfants Malades,,,ROR,05tr67282,https://ror.org/05tr67282,,Paris,France,48.85341,2.3488,,,,,
,CHU de Nice,Centre Hospitalier Universitaire de Nice,,,ROR,05qsjq305,https://ror.org/05qsjq305,,Nice,France,43.710521,7.260534,,,,,
,"Assistance Publique-Hôpitaux de Paris, Hôpital Necker-Enfants Malades",Centre Hospitalier Universitaire Henri-Mondor,,,ROR,04m61mj84,https://ror.org/04m61mj84,,Créteil,France,48.796974,2.45295,,,,,
,CHU de Bordeaux,Centre Hospitalier Universitaire de Bordeaux,,,ROR,01hq89f96,https://ror.org/01hq89f96,,Bordeaux,France,44.84044,-0.5805,,,,,
,CHU de Rouen,Hôpital Charles-Nicolle,,,ROR,00cxy0s05,https://ror.org/00cxy0s05,,Rouen,France,49.440541,1.110672,,,,,
,CHU de Toulouse,Centre Hospitalier Universitaire de Toulouse,,,ROR,017h5q109,https://ror.org/017h5q109,,Toulouse,France,43.60426,1.44367,,,,,
,Städtisches Klinikum Dessau,,,,ROR,00gj8pr18,https://ror.org/00gj8pr18,,Dessau,Germany,51.81578,12.197049,,,,,
,Universitätsklinikum Würzburg,University Hospital Würzburg,,,ROR,03pvr2g57,https://ror.org/03pvr2g57,,Wurzburg,Germany,49.801517,9.95373,,,,,
,Universitätsklinikum Freiburg,University Medical Center Freiburg,,,ROR,03vzbgh69,https://ror.org/03vzbgh69,,Freiburg,Germany,48.006297,7.840624,,,,,
,Universitätsklinikum Freiburg – Genetics,University Medical Center Freiburg,,,ROR,03vzbgh69,https://ror.org/03vzbgh69,,Freiburg,Germany,48.006297,7.840624,,,,,
,Universitätsklinikum Regensburg,University Hospital Regensburg,,,ROR,01226dv09,https://ror.org/01226dv09,,Regensburg,Germany,48.988489,12.089145,,,,,
,Klinikum der Universität München,LMU Klinikum,,,ROR,02jet3w32,https://ror.org/02jet3w32,,Munich,Germany,48.110278,11.469444,,,,,
,Universitätsklinikum Münster,University Hospital Münster,,,ROR,01856cw59,https://ror.org/01856cw59,,Münster,Germany,51.960835,7.596277,,,,,
,Universitätsklinikum Erlangen,,,,ROR,0030f2a11,https://ror.org/0030f2a11,,Erlangen,Germany,49.59099,11.00783,,,,,
,Universitätsmedizin Rostock,,,,ROR,04dm1cm79,https://ror.org/04dm1cm79,,Rostock,Germany,54.075556,12.103333,,,,,
,University of Debrecen,,,,ROR,02xf66n48,https://ror.org/02xf66n48,,Debrecen,Hungary,47.53167,21.62444,,,,,
,"Szent-Györgyi Albert Medical Center, University of Szeged",University of Szeged,,,ROR,01pnej532,https://ror.org/01pnej532,,Szeged,Hungary,46.253,20.14824,,,,,
,Semmelweis University,,,,ROR,01g9ty582,https://ror.org/01g9ty582,,Budapest,Hungary,47.487222,19.067222,,,,,
,Children's Health Ireland,Children's Health Ireland at Crumlin,,,ROR,025qedy81,https://ror.org/025qedy81,,Dublin,Ireland,53.325833,-6.317222,,,,,
,Foundation polyclinic University A. Gemelli - Rome,Agostino Gemelli University Polyclinic,,,ROR,00rg70c39,https://ror.org/00rg70c39,,Rome,Italy,41.929752,12.429125,,,,,
,Civil Hospital - Brescia,Spedali Civili di Brescia,,,ROR,015rhss58,https://ror.org/015rhss58,,Brescia,Italy,45.557998,10.230771,,,,,
,ASL Tuscan Centre,Azienda Usl Toscana Centro,,,ROR,05a87zb20,https://ror.org/05a87zb20,,Pistoia,Italy,43.9350518,10.9183529,,,,,
,AOU - Bologna,Azienda USL di Bologna,,,ROR,02mby1820,https://ror.org/02mby1820,,Bologna,Italy,44.48979,11.348087,,,,,
,AO City of Health and Science - Turin,Azienda Ospedaliera Citta' della Salute e della Scienza di Torino,,,ROR,001f7a930,https://ror.org/001f7a930,,Turin,Italy,45.041268,7.672926,,,,,
,Foundation IRCCS CA'Granda Ospedale Maggiore polyclinic - Milan,Fondazione IRCCS Ca' Granda Ospedale Maggiore Policlinico,,,ROR,016zn0y21,https://ror.org/016zn0y21,,Milan,Italy,45.46427,9.18951,,,,,
,AOU Meyer - Florence,Meyer Children's Hospital,,,ROR,01n2xwm51,https://ror.org/01n2xwm51,,Florence,Italy,43.810527,11.252438,,,,,
,"Pediatric hospital Bambino Gesù, Rome",Bambino Gesù Children's Hospital,,,ROR,02sy42d13,https://ror.org/02sy42d13,,Rome,Italy,41.897466,12.461168,,,,,
,Foundation IRCCS-Casa Sollievo della Sofferenza,Casa Sollievo della Sofferenza,,,ROR,00md77g41,https://ror.org/00md77g41,,San Giovanni Rotondo,Italy,41.708831,15.706202,,,,,
,IRCCS IDI foundation Luigi Maria Monti - Rome,Istituto Dermopatico dell'Immacolata,,,ROR,02b5mfy68,https://ror.org/02b5mfy68,,Rome,Italy,41.901642,12.430741,,,,,
,AOU - Modena,University of Modena and Reggio Emilia,,,ROR,02d4c4y02,https://ror.org/02d4c4y02,,Modena,Italy,44.64783,10.92539,,,,,
,University Hospital of Padova,Azienda Ospedaliera di Padova,,,ROR,04bhk6583,https://ror.org/04bhk6583,,Padova,Italy,45.404314,11.887474,,,,,
,"Children's Clinical University Hospital, Riga",,,,ROR,01js8h045,https://ror.org/01js8h045,,Riga,Latvia,56.921972,24.088044,,,,,
,Hospital of Lithuanian University of Health Sciences Kauno Klinikos,Lithuanian University of Health Sciences,,,ROR,0069bkg23,https://ror.org/0069bkg23,,Kaunas,Lithuania,54.90272,23.90961,,,,,
,Centre Hospitalier de Luxembourg,,,,ROR,03xq7w797,https://ror.org/03xq7w797,,Luxembourg,Luxembourg,49.61902,6.100791,,,,,
,Mater Dei Hospital,,,,ROR,05a01hn31,https://ror.org/05a01hn31,,Imsida,Malta,35.901828,14.476744,,,,,
,University Medical Center Utrecht,,,,ROR,0575yy874,https://ror.org/0575yy874,,Utrecht,Netherlands,52.09083,5.12222,,,,,
,Maastricht University Medical Center+,,,,ROR,02d9ce178,https://ror.org/02d9ce178,,Maastricht,Netherlands,50.84833,5.68889,,,,,
,University Medical Centre Groningen,,,,ROR,03cv38k47,https://ror.org/03cv38k47,,Groningen,Netherlands,53.222794,6.574039,,,,,
,Erasmus MC: University Medical Center Rotterdam,Erasmus MC,,,ROR,"1,8906E+26",https://ror.org/018906e22,,Rotterdam,Netherlands,51.9225,4.47917,,,,,
,Amsterdam University Medical Centers Location AMC,Amsterdam University Medical Centers,,,ROR,05grdyy37,https://ror.org/05grdyy37,,Amsterdam,Netherlands,52.37403,4.88969,,,,,
,Colentina Clinical Hospital,Spitalul Clinic Colentina,,,ROR,04fkbqt11,https://ror.org/04fkbqt11,,Bucharest,Romania,44.453796,26.113551,,,,,
,University Medical Centre Ljubljana,Ljubljana University Medical Centre,,,ROR,01nr6fy72,https://ror.org/01nr6fy72,,Ljubljana,Slovenia,46.053689,14.521233,,,,,
,Sant Joan de Déu Hospital,Hospital Sant Joan de Déu Barcelona,,,ROR,001jx2139,https://ror.org/001jx2139,,Barcelona,Spain,41.38424,2.102141,,,,,
,Uppsala University Hospital,,,,ROR,01apvbh93,https://ror.org/01apvbh93,,Uppsala,Sweden,59.847222,17.640278,,,,,
,University Hospital Center Zagreb,,,,ROR,00r9vb833,https://ror.org/00r9vb833,,Zagreb,Croatia,4581444.0,1597798.0,,,,,
